header: 
  seq: 226301
  stamp: 
    secs: 1694626980
    nsecs: 606505632
  frame_id: ''
sim_step: 543091
identifier: 
  data: "/ambf/env/psm2/BODY 6toolyaw"
name: 
  data: "6toolyaw"
wall_time: 4526.03076171875
sim_time: 4525.75830078125
mass: 1.0
pInertia: 
  x: 2.666666666666666e-05
  y: 2.6666666666666653e-05
  z: 4.266666666666666e-05
pose: 
  position: 
    x: -0.23017711391297585
    y: 0.18013888970205594
    z: 0.8703868372273442
  orientation: 
    x: 0.4759087059000427
    y: 0.23436747628375393
    z: 0.3974617973183159
    w: 0.7487368759326768
twist: 
  linear: 
    x: -0.1950175856201077
    y: -0.03600664346423721
    z: 0.14393929059516808
  angular: 
    x: 5.376356014560663
    y: -2.1672977491964134
    z: -0.34453813871891814
wrench: 
  force: 
    x: 0.0
    y: 0.0
    z: 0.0
  torque: 
    x: 0.0
    y: 0.0
    z: 0.0
children_names: []
joint_names: []
joint_positions: []
joint_velocities: []
joint_efforts: []
---
header: 
  seq: 226302
  stamp: 
    secs: 1694626980
    nsecs: 622183323
  frame_id: ''
sim_step: 543093
identifier: 
  data: "/ambf/env/psm2/BODY 6toolyaw"
name: 
  data: "6toolyaw"
wall_time: 4526.04736328125
sim_time: 4525.77490234375
mass: 1.0
pInertia: 
  x: 2.666666666666666e-05
  y: 2.6666666666666653e-05
  z: 4.266666666666666e-05
pose: 
  position: 
    x: -0.23218676671557426
    y: 0.17984066505088547
    z: 0.8704885489915922
  orientation: 
    x: 0.4759087059000427
    y: 0.23436747628375393
    z: 0.3974617973183159
    w: 0.7487368759326768
twist: 
  linear: 
    x: -0.11040371680473388
    y: -0.01204111438366785
    z: -0.019992007171643903
  angular: 
    x: -0.3621672773245435
    y: -1.1305836904570559
    z: 1.1804976973906336
wrench: 
  force: 
    x: 0.0
    y: 0.0
    z: 0.0
  torque: 
    x: 0.0
    y: 0.0
    z: 0.0
children_names: []
joint_names: []
joint_positions: []
joint_velocities: []
joint_efforts: []
---
header: 
  seq: 226303
  stamp: 
    secs: 1694626980
    nsecs: 639032125
  frame_id: ''
sim_step: 543095
identifier: 
  data: "/ambf/env/psm2/BODY 6toolyaw"
name: 
  data: "6toolyaw"
wall_time: 4526.06396484375
sim_time: 4525.79150390625
mass: 1.0
pInertia: 
  x: 2.666666666666666e-05
  y: 2.6666666666666653e-05
  z: 4.266666666666666e-05
pose: 
  position: 
    x: -0.23428983801376316
    y: 0.1794599684659665
    z: 0.8706648378019802
  orientation: 
    x: 0.4759087059000427
    y: 0.23436747628375393
    z: 0.3974617973183159
    w: 0.7487368759326768
twist: 
  linear: 
    x: -0.15436514296617077
    y: -0.043655443112908775
    z: 0.0664577921166267
  angular: 
    x: 1.2442379218359971
    y: 0.2487883541566112
    z: -1.0142672898222203
wrench: 
  force: 
    x: 0.0
    y: 0.0
    z: 0.0
  torque: 
    x: 0.0
    y: 0.0
    z: 0.0
children_names: []
joint_names: []
joint_positions: []
joint_velocities: []
joint_efforts: []
---
header: 
  seq: 226304
  stamp: 
    secs: 1694626980
    nsecs: 663746119
  frame_id: ''
sim_step: 543098
identifier: 
  data: "/ambf/env/psm2/BODY 6toolyaw"
name: 
  data: "6toolyaw"
wall_time: 4526.08935546875
sim_time: 4525.81689453125
mass: 1.0
pInertia: 
  x: 2.666666666666666e-05
  y: 2.6666666666666653e-05
  z: 4.266666666666666e-05
pose: 
  position: 
    x: -0.2372575796351834
    y: 0.17854854487717994
    z: 0.8714970030663982
  orientation: 
    x: 0.4759087059000427
    y: 0.23436747628375393
    z: 0.3974617973183159
    w: 0.7487368759326768
twist: 
  linear: 
    x: -0.0797864262901774
    y: -0.006257152730838472
    z: -0.062425692301165875
  angular: 
    x: -0.45911450451332964
    y: 0.4239115614942902
    z: 1.1620716706364231
wrench: 
  force: 
    x: 0.0
    y: 0.0
    z: 0.0
  torque: 
    x: 0.0
    y: 0.0
    z: 0.0
children_names: []
joint_names: []
joint_positions: []
joint_velocities: []
joint_efforts: []
---
header: 
  seq: 226305
  stamp: 
    secs: 1694626980
    nsecs: 681505442
  frame_id: ''
sim_step: 543100
identifier: 
  data: "/ambf/env/psm2/BODY 6toolyaw"
name: 
  data: "6toolyaw"
wall_time: 4526.10595703125
sim_time: 4525.83349609375
mass: 1.0
pInertia: 
  x: 2.666666666666666e-05
  y: 2.6666666666666653e-05
  z: 4.266666666666666e-05
pose: 
  position: 
    x: -0.23938173023334428
    y: 0.1780598969557529
    z: 0.8720710439445749
  orientation: 
    x: 0.4759087059000427
    y: 0.23436747628375393
    z: 0.3974617973183159
    w: 0.7487368759326768
twist: 
  linear: 
    x: -0.1893942844078038
    y: -0.056660078112319975
    z: 0.19923332102612284
  angular: 
    x: 6.1431390834687996
    y: -2.619002448385456
    z: -0.15919488955816252
wrench: 
  force: 
    x: 0.0
    y: 0.0
    z: 0.0
  torque: 
    x: 0.0
    y: 0.0
    z: 0.0
children_names: []
joint_names: []
joint_positions: []
joint_velocities: []
joint_efforts: []
---
header: 
  seq: 226306
  stamp: 
    secs: 1694626980
    nsecs: 706583500
  frame_id: ''
sim_step: 543103
identifier: 
  data: "/ambf/env/psm2/BODY 6toolyaw"
name: 
  data: "6toolyaw"
wall_time: 4526.130859375
sim_time: 4525.8583984375
mass: 1.0
pInertia: 
  x: 2.666666666666666e-05
  y: 2.6666666666666653e-05
  z: 4.266666666666666e-05
pose: 
  position: 
    x: -0.24247324799543682
    y: 0.17747072335839117
    z: 0.8729051632771384
  orientation: 
    x: 0.4759087059000427
    y: 0.23436747628375393
    z: 0.3974617973183159
    w: 0.7487368759326768
twist: 
  linear: 
    x: -0.08655987761876352
    y: -0.002319698788163656
    z: -0.04793240790441402
  angular: 
    x: -0.7832397007961004
    y: -0.3409458377321844
    z: 0.40742978977271815
wrench: 
  force: 
    x: 0.0
    y: 0.0
    z: 0.0
  torque: 
    x: 0.0
    y: 0.0
    z: 0.0
children_names: []
joint_names: []
joint_positions: []
joint_velocities: []
joint_efforts: []
---
header: 
  seq: 226307
  stamp: 
    secs: 1694626980
    nsecs: 722197771
  frame_id: ''
sim_step: 543105
identifier: 
  data: "/ambf/env/psm2/BODY 6toolyaw"
name: 
  data: "6toolyaw"
wall_time: 4526.1474609375
sim_time: 4525.875
mass: 1.0
pInertia: 
  x: 2.666666666666666e-05
  y: 2.6666666666666653e-05
  z: 4.266666666666666e-05
pose: 
  position: 
    x: -0.2449824600886559
    y: 0.17696474895346317
    z: 0.8738459702764596
  orientation: 
    x: 0.4759087059000427
    y: 0.23436747628375393
    z: 0.3974617973183159
    w: 0.7487368759326768
twist: 
  linear: 
    x: -0.12294461129899555
    y: -0.023694931372094795
    z: 0.016976367697576433
  angular: 
    x: -0.17208099629892282
    y: -0.5444127649674566
    z: 0.582439999110984
wrench: 
  force: 
    x: 0.0
    y: 0.0
    z: 0.0
  torque: 
    x: 0.0
    y: 0.0
    z: 0.0
children_names: []
joint_names: []
joint_positions: []
joint_velocities: []
joint_efforts: []
---
header: 
  seq: 226308
  stamp: 
    secs: 1694626980
    nsecs: 739352226
  frame_id: ''
sim_step: 543107
identifier: 
  data: "/ambf/env/psm2/BODY 6toolyaw"
name: 
  data: "6toolyaw"
wall_time: 4526.1640625
sim_time: 4525.8916015625
mass: 1.0
pInertia: 
  x: 2.666666666666666e-05
  y: 2.6666666666666653e-05
  z: 4.266666666666666e-05
pose: 
  position: 
    x: -0.2472095841612825
    y: 0.17651584445721358
    z: 0.8738663743791552
  orientation: 
    x: 0.4759087059000427
    y: 0.23436747628375393
    z: 0.3974617973183159
    w: 0.7487368759326768
twist: 
  linear: 
    x: -0.11019380628711549
    y: -0.018573036210160397
    z: -0.041731507149086855
  angular: 
    x: -0.34607948328158744
    y: -0.09256885187684002
    z: 0.9569525032186365
wrench: 
  force: 
    x: 0.0
    y: 0.0
    z: 0.0
  torque: 
    x: 0.0
    y: 0.0
    z: 0.0
children_names: []
joint_names: []
joint_positions: []
joint_velocities: []
joint_efforts: []
---
header: 
  seq: 226309
  stamp: 
    secs: 1694626980
    nsecs: 763746500
  frame_id: ''
sim_step: 543110
identifier: 
  data: "/ambf/env/psm2/BODY 6toolyaw"
name: 
  data: "6toolyaw"
wall_time: 4526.18896484375
sim_time: 4525.91650390625
mass: 1.0
pInertia: 
  x: 2.666666666666666e-05
  y: 2.6666666666666653e-05
  z: 4.266666666666666e-05
pose: 
  position: 
    x: -0.250642350746401
    y: 0.17528608628024966
    z: 0.8744759798316134
  orientation: 
    x: 0.4759087059000427
    y: 0.23436747628375393
    z: 0.3974617973183159
    w: 0.7487368759326768
twist: 
  linear: 
    x: -0.1172176710697301
    y: -0.04964065573560674
    z: -3.415913567118267e-05
  angular: 
    x: -1.845303961507284
    y: -0.14448522585634926
    z: -0.10040132389301146
wrench: 
  force: 
    x: 0.0
    y: 0.0
    z: 0.0
  torque: 
    x: 0.0
    y: 0.0
    z: 0.0
children_names: []
joint_names: []
joint_positions: []
joint_velocities: []
joint_efforts: []
---
header: 
  seq: 226310
  stamp: 
    secs: 1694626980
    nsecs: 781215668
  frame_id: ''
sim_step: 543112
identifier: 
  data: "/ambf/env/psm2/BODY 6toolyaw"
name: 
  data: "6toolyaw"
wall_time: 4526.2060546875
sim_time: 4525.93310546875
mass: 1.0
pInertia: 
  x: 2.666666666666666e-05
  y: 2.6666666666666653e-05
  z: 4.266666666666666e-05
pose: 
  position: 
    x: -0.2531067349466559
    y: 0.17430957428339433
    z: 0.8749880975321062
  orientation: 
    x: 0.4759087059000427
    y: 0.23436747628375393
    z: 0.3974617973183159
    w: 0.7487368759326768
twist: 
  linear: 
    x: -0.14934060455717216
    y: -0.060938918536747315
    z: 0.0366373592690519
  angular: 
    x: -0.8029086730705046
    y: 2.4272635724757317
    z: -2.035366490860203
wrench: 
  force: 
    x: 0.0
    y: 0.0
    z: 0.0
  torque: 
    x: 0.0
    y: 0.0
    z: 0.0
children_names: []
joint_names: []
joint_positions: []
joint_velocities: []
joint_efforts: []
---
header: 
  seq: 226311
  stamp: 
    secs: 1694626980
    nsecs: 806827307
  frame_id: ''
sim_step: 543115
identifier: 
  data: "/ambf/env/psm2/BODY 6toolyaw"
name: 
  data: "6toolyaw"
wall_time: 4526.23095703125
sim_time: 4525.95849609375
mass: 1.0
pInertia: 
  x: 2.666666666666666e-05
  y: 2.6666666666666653e-05
  z: 4.266666666666666e-05
pose: 
  position: 
    x: -0.2561767531457262
    y: 0.17310310456970132
    z: 0.8751211806805885
  orientation: 
    x: 0.459048201839638
    y: 0.26195836663707545
    z: 0.3526846877777863
    w: 0.7721826685077281
twist: 
  linear: 
    x: -0.10312212844920474
    y: -0.03755914406690199
    z: -0.015230548779134408
  angular: 
    x: 1.0649012281751675
    y: -0.07685207416614045
    z: 0.5232098116984883
wrench: 
  force: 
    x: 0.0
    y: 0.0
    z: 0.0
  torque: 
    x: 0.0
    y: 0.0
    z: 0.0
children_names: []
joint_names: []
joint_positions: []
joint_velocities: []
joint_efforts: []
---
header: 
  seq: 226312
  stamp: 
    secs: 1694626980
    nsecs: 823369265
  frame_id: ''
sim_step: 543117
identifier: 
  data: "/ambf/env/psm2/BODY 6toolyaw"
name: 
  data: "6toolyaw"
wall_time: 4526.24755859375
sim_time: 4525.97509765625
mass: 1.0
pInertia: 
  x: 2.666666666666666e-05
  y: 2.6666666666666653e-05
  z: 4.266666666666666e-05
pose: 
  position: 
    x: -0.2581560714724239
    y: 0.17251632340485237
    z: 0.8750791282428283
  orientation: 
    x: 0.459048201839638
    y: 0.26195836663707545
    z: 0.3526846877777863
    w: 0.7721826685077281
twist: 
  linear: 
    x: -0.13826569830782998
    y: -0.03795746708270897
    z: 0.026323918197506613
  angular: 
    x: 1.1976333752609207
    y: -0.34169698770722623
    z: -0.3400683729571452
wrench: 
  force: 
    x: 0.0
    y: 0.0
    z: 0.0
  torque: 
    x: 0.0
    y: 0.0
    z: 0.0
children_names: []
joint_names: []
joint_positions: []
joint_velocities: []
joint_efforts: []
---
header: 
  seq: 226313
  stamp: 
    secs: 1694626980
    nsecs: 839218616
  frame_id: ''
sim_step: 543119
identifier: 
  data: "/ambf/env/psm2/BODY 6toolyaw"
name: 
  data: "6toolyaw"
wall_time: 4526.26416015625
sim_time: 4525.99169921875
mass: 1.0
pInertia: 
  x: 2.666666666666666e-05
  y: 2.6666666666666653e-05
  z: 4.266666666666666e-05
pose: 
  position: 
    x: -0.2601537169000581
    y: 0.17196660854853055
    z: 0.8753543928535358
  orientation: 
    x: 0.459048201839638
    y: 0.26195836663707545
    z: 0.3526846877777863
    w: 0.7721826685077281
twist: 
  linear: 
    x: -0.09456406819074542
    y: -0.022169872008098748
    z: -0.010634175111064242
  angular: 
    x: -1.0102993623566525
    y: -0.08220797162189858
    z: 0.19548175217137548
wrench: 
  force: 
    x: 0.0
    y: 0.0
    z: 0.0
  torque: 
    x: 0.0
    y: 0.0
    z: 0.0
children_names: []
joint_names: []
joint_positions: []
joint_velocities: []
joint_efforts: []
---
header: 
  seq: 226314
  stamp: 
    secs: 1694626980
    nsecs: 864191532
  frame_id: ''
sim_step: 543122
identifier: 
  data: "/ambf/env/psm2/BODY 6toolyaw"
name: 
  data: "6toolyaw"
wall_time: 4526.2890625
sim_time: 4526.0166015625
mass: 1.0
pInertia: 
  x: 2.666666666666666e-05
  y: 2.6666666666666653e-05
  z: 4.266666666666666e-05
pose: 
  position: 
    x: -0.2625940282085592
    y: 0.17145563714972742
    z: 0.8751402065735527
  orientation: 
    x: 0.459048201839638
    y: 0.26195836663707545
    z: 0.3526846877777863
    w: 0.7721826685077281
twist: 
  linear: 
    x: -0.11187863167925384
    y: -0.01996505274848197
    z: 0.009080734149636784
  angular: 
    x: 5.190455081922894
    y: -2.559475893084765
    z: 1.5524458422868175
wrench: 
  force: 
    x: 0.0
    y: 0.0
    z: 0.0
  torque: 
    x: 0.0
    y: 0.0
    z: 0.0
children_names: []
joint_names: []
joint_positions: []
joint_velocities: []
joint_efforts: []
---
header: 
  seq: 226315
  stamp: 
    secs: 1694626980
    nsecs: 881177664
  frame_id: ''
sim_step: 543124
identifier: 
  data: "/ambf/env/psm2/BODY 6toolyaw"
name: 
  data: "6toolyaw"
wall_time: 4526.3056640625
sim_time: 4526.033203125
mass: 1.0
pInertia: 
  x: 2.666666666666666e-05
  y: 2.6666666666666653e-05
  z: 4.266666666666666e-05
pose: 
  position: 
    x: -0.26451469964364926
    y: 0.17097831282216966
    z: 0.8752454303346713
  orientation: 
    x: 0.459048201839638
    y: 0.26195836663707545
    z: 0.3526846877777863
    w: 0.7721826685077281
twist: 
  linear: 
    x: -0.11811587628873302
    y: -0.029999370065358178
    z: 0.005712902927176151
  angular: 
    x: 0.5632831346837084
    y: 0.8862003746886435
    z: -1.1009287761247226
wrench: 
  force: 
    x: 0.0
    y: 0.0
    z: 0.0
  torque: 
    x: 0.0
    y: 0.0
    z: 0.0
children_names: []
joint_names: []
joint_positions: []
joint_velocities: []
joint_efforts: []
---
header: 
  seq: 226316
  stamp: 
    secs: 1694626980
    nsecs: 907509327
  frame_id: ''
sim_step: 543127
identifier: 
  data: "/ambf/env/psm2/BODY 6toolyaw"
name: 
  data: "6toolyaw"
wall_time: 4526.3310546875
sim_time: 4526.05810546875
mass: 1.0
pInertia: 
  x: 2.666666666666666e-05
  y: 2.6666666666666653e-05
  z: 4.266666666666666e-05
pose: 
  position: 
    x: -0.2669365635914088
    y: 0.1703354334783298
    z: 0.8749287195851307
  orientation: 
    x: 0.459048201839638
    y: 0.26195836663707545
    z: 0.3526846877777863
    w: 0.7721826685077281
twist: 
  linear: 
    x: -0.1097174742479439
    y: -0.008733212472848084
    z: 0.010680404808279333
  angular: 
    x: 6.000946060096023
    y: -7.801112625355708
    z: 1.3101486621805547
wrench: 
  force: 
    x: 0.0
    y: 0.0
    z: 0.0
  torque: 
    x: 0.0
    y: 0.0
    z: 0.0
children_names: []
joint_names: []
joint_positions: []
joint_velocities: []
joint_efforts: []
---
header: 
  seq: 226317
  stamp: 
    secs: 1694626980
    nsecs: 922528505
  frame_id: ''
sim_step: 543129
identifier: 
  data: "/ambf/env/psm2/BODY 6toolyaw"
name: 
  data: "6toolyaw"
wall_time: 4526.34765625
sim_time: 4526.0751953125
mass: 1.0
pInertia: 
  x: 2.666666666666666e-05
  y: 2.6666666666666653e-05
  z: 4.266666666666666e-05
pose: 
  position: 
    x: -0.26861778711175166
    y: 0.1698131469710589
    z: 0.8748678450820083
  orientation: 
    x: 0.459048201839638
    y: 0.26195836663707545
    z: 0.3526846877777863
    w: 0.7721826685077281
twist: 
  linear: 
    x: -0.10764586491442987
    y: -0.033309195100154274
    z: -0.007166850594243945
  angular: 
    x: 1.2651440706885086
    y: -1.1032929785657524
    z: -0.16283430484051717
wrench: 
  force: 
    x: 0.0
    y: 0.0
    z: 0.0
  torque: 
    x: 0.0
    y: 0.0
    z: 0.0
children_names: []
joint_names: []
joint_positions: []
joint_velocities: []
joint_efforts: []
---
header: 
  seq: 226318
  stamp: 
    secs: 1694626980
    nsecs: 938745737
  frame_id: ''
sim_step: 543131
identifier: 
  data: "/ambf/env/psm2/BODY 6toolyaw"
name: 
  data: "6toolyaw"
wall_time: 4526.3642578125
sim_time: 4526.091796875
mass: 1.0
pInertia: 
  x: 2.666666666666666e-05
  y: 2.6666666666666653e-05
  z: 4.266666666666666e-05
pose: 
  position: 
    x: -0.2700921499683692
    y: 0.16931679992618576
    z: 0.8746771844111131
  orientation: 
    x: 0.459048201839638
    y: 0.26195836663707545
    z: 0.3526846877777863
    w: 0.7721826685077281
twist: 
  linear: 
    x: -0.09082369444422683
    y: -0.04039500742141845
    z: 0.004089012630366993
  angular: 
    x: 1.172092685016042
    y: -0.8559318291540521
    z: -0.704850230662736
wrench: 
  force: 
    x: 0.0
    y: 0.0
    z: 0.0
  torque: 
    x: 0.0
    y: 0.0
    z: 0.0
children_names: []
joint_names: []
joint_positions: []
joint_velocities: []
joint_efforts: []
---
header: 
  seq: 226319
  stamp: 
    secs: 1694626980
    nsecs: 964972734
  frame_id: ''
sim_step: 543134
identifier: 
  data: "/ambf/env/psm2/BODY 6toolyaw"
name: 
  data: "6toolyaw"
wall_time: 4526.38916015625
sim_time: 4526.11669921875
mass: 1.0
pInertia: 
  x: 2.666666666666666e-05
  y: 2.6666666666666653e-05
  z: 4.266666666666666e-05
pose: 
  position: 
    x: -0.2720226311534204
    y: 0.16862280222670423
    z: 0.8747307319325566
  orientation: 
    x: 0.459048201839638
    y: 0.26195836663707545
    z: 0.3526846877777863
    w: 0.7721826685077281
twist: 
  linear: 
    x: -0.05322821472680216
    y: -0.011535373304014959
    z: -0.03060528723517962
  angular: 
    x: 0.10958240566645208
    y: -0.19746829308675223
    z: 1.2560055469534486
wrench: 
  force: 
    x: 0.0
    y: 0.0
    z: 0.0
  torque: 
    x: 0.0
    y: 0.0
    z: 0.0
children_names: []
joint_names: []
joint_positions: []
joint_velocities: []
joint_efforts: []
---
header: 
  seq: 226320
  stamp: 
    secs: 1694626980
    nsecs: 981019020
  frame_id: ''
sim_step: 543136
identifier: 
  data: "/ambf/env/psm2/BODY 6toolyaw"
name: 
  data: "6toolyaw"
wall_time: 4526.40576171875
sim_time: 4526.13330078125
mass: 1.0
pInertia: 
  x: 2.666666666666666e-05
  y: 2.6666666666666653e-05
  z: 4.266666666666666e-05
pose: 
  position: 
    x: -0.2734255029243106
    y: 0.16802392452712195
    z: 0.8754231195864236
  orientation: 
    x: 0.459048201839638
    y: 0.26195836663707545
    z: 0.3526846877777863
    w: 0.7721826685077281
twist: 
  linear: 
    x: -0.08589016891741885
    y: -0.03890870559621426
    z: 0.05155713205298842
  angular: 
    x: 0.32216141105431007
    y: 0.5863723239593491
    z: -1.0940975355399103
wrench: 
  force: 
    x: 0.0
    y: 0.0
    z: 0.0
  torque: 
    x: 0.0
    y: 0.0
    z: 0.0
children_names: []
joint_names: []
joint_positions: []
joint_velocities: []
joint_efforts: []
---
header: 
  seq: 226321
  stamp: 
    secs: 1694626981
    nsecs:   6641865
  frame_id: ''
sim_step: 543139
identifier: 
  data: "/ambf/env/psm2/BODY 6toolyaw"
name: 
  data: "6toolyaw"
wall_time: 4526.4306640625
sim_time: 4526.158203125
mass: 1.0
pInertia: 
  x: 2.666666666666666e-05
  y: 2.6666666666666653e-05
  z: 4.266666666666666e-05
pose: 
  position: 
    x: -0.27485438171487725
    y: 0.16745916188024607
    z: 0.8756720858558773
  orientation: 
    x: 0.459048201839638
    y: 0.26195836663707545
    z: 0.3526846877777863
    w: 0.7721826685077281
twist: 
  linear: 
    x: -0.06358299158591975
    y: -0.025133859065177913
    z: 0.04360824007845104
  angular: 
    x: -0.9190239198942376
    y: 0.504213065058385
    z: 0.5017623834496597
wrench: 
  force: 
    x: 0.0
    y: 0.0
    z: 0.0
  torque: 
    x: 0.0
    y: 0.0
    z: 0.0
children_names: []
joint_names: []
joint_positions: []
joint_velocities: []
joint_efforts: []
---
header: 
  seq: 226322
  stamp: 
    secs: 1694626981
    nsecs:  23286819
  frame_id: ''
sim_step: 543141
identifier: 
  data: "/ambf/env/psm2/BODY 6toolyaw"
name: 
  data: "6toolyaw"
wall_time: 4526.44775390625
sim_time: 4526.1748046875
mass: 1.0
pInertia: 
  x: 2.666666666666666e-05
  y: 2.6666666666666653e-05
  z: 4.266666666666666e-05
pose: 
  position: 
    x: -0.2756728455483974
    y: 0.16710785335348874
    z: 0.8756578779285242
  orientation: 
    x: 0.459048201839638
    y: 0.26195836663707545
    z: 0.3526846877777863
    w: 0.7721826685077281
twist: 
  linear: 
    x: -0.04977680298591292
    y: -0.014209943676216835
    z: 0.0018354211521010842
  angular: 
    x: 0.18428229041663652
    y: -0.17234206433268798
    z: 1.225522124021999
wrench: 
  force: 
    x: 0.0
    y: 0.0
    z: 0.0
  torque: 
    x: 0.0
    y: 0.0
    z: 0.0
children_names: []
joint_names: []
joint_positions: []
joint_velocities: []
joint_efforts: []
---
header: 
  seq: 226323
  stamp: 
    secs: 1694626981
    nsecs:  38761616
  frame_id: ''
sim_step: 543143
identifier: 
  data: "/ambf/env/psm2/BODY 6toolyaw"
name: 
  data: "6toolyaw"
wall_time: 4526.46435546875
sim_time: 4526.19189453125
mass: 1.0
pInertia: 
  x: 2.666666666666666e-05
  y: 2.6666666666666653e-05
  z: 4.266666666666666e-05
pose: 
  position: 
    x: -0.2764919371250214
    y: 0.16692339476841264
    z: 0.8757043857162561
  orientation: 
    x: 0.458701524903181
    y: 0.26042478039584893
    z: 0.34558801100371117
    w: 0.7761061599148463
twist: 
  linear: 
    x: -0.04715604249734533
    y: -0.007633258791246565
    z: 0.005165283385367618
  angular: 
    x: -0.1663517190182663
    y: 0.0894895909930685
    z: 0.7193593300600426
wrench: 
  force: 
    x: 0.0
    y: 0.0
    z: 0.0
  torque: 
    x: 0.0
    y: 0.0
    z: 0.0
children_names: []
joint_names: []
joint_positions: []
joint_velocities: []
joint_efforts: []
---
header: 
  seq: 226324
  stamp: 
    secs: 1694626981
    nsecs:  65874577
  frame_id: ''
sim_step: 543146
identifier: 
  data: "/ambf/env/psm2/BODY 6toolyaw"
name: 
  data: "6toolyaw"
wall_time: 4526.4892578125
sim_time: 4526.216796875
mass: 1.0
pInertia: 
  x: 2.666666666666666e-05
  y: 2.6666666666666653e-05
  z: 4.266666666666666e-05
pose: 
  position: 
    x: -0.27744112542841376
    y: 0.1665967687566908
    z: 0.8757765819372544
  orientation: 
    x: 0.458701524903181
    y: 0.26042478039584893
    z: 0.34558801100371117
    w: 0.7761061599148463
twist: 
  linear: 
    x: -0.030408856668070527
    y: -0.016773031411438374
    z: 0.0010168835719616821
  angular: 
    x: -0.16384629399376252
    y: 0.2894361135445587
    z: -1.3170727911069524
wrench: 
  force: 
    x: 0.0
    y: 0.0
    z: 0.0
  torque: 
    x: 0.0
    y: 0.0
    z: 0.0
children_names: []
joint_names: []
joint_positions: []
joint_velocities: []
joint_efforts: []
---
header: 
  seq: 226325
  stamp: 
    secs: 1694626981
    nsecs:  80842495
  frame_id: ''
sim_step: 543148
identifier: 
  data: "/ambf/env/psm2/BODY 6toolyaw"
name: 
  data: "6toolyaw"
wall_time: 4526.505859375
sim_time: 4526.2333984375
mass: 1.0
pInertia: 
  x: 2.666666666666666e-05
  y: 2.6666666666666653e-05
  z: 4.266666666666666e-05
pose: 
  position: 
    x: -0.2779156692463523
    y: 0.16630740352042295
    z: 0.8757496362084076
  orientation: 
    x: 0.458701524903181
    y: 0.26042478039584893
    z: 0.34558801100371117
    w: 0.7761061599148463
twist: 
  linear: 
    x: -0.025399873073004717
    y: -0.016387256584349363
    z: -0.0031512588601632675
  angular: 
    x: -0.29463289486119715
    y: 0.5269535931227383
    z: -1.1859044030953299
wrench: 
  force: 
    x: 0.0
    y: 0.0
    z: 0.0
  torque: 
    x: 0.0
    y: 0.0
    z: 0.0
children_names: []
joint_names: []
joint_positions: []
joint_velocities: []
joint_efforts: []
---
header: 
  seq: 226326
  stamp: 
    secs: 1694626981
    nsecs: 106395960
  frame_id: ''
sim_step: 543151
identifier: 
  data: "/ambf/env/psm2/BODY 6toolyaw"
name: 
  data: "6toolyaw"
wall_time: 4526.53076171875
sim_time: 4526.25830078125
mass: 1.0
pInertia: 
  x: 2.666666666666666e-05
  y: 2.6666666666666653e-05
  z: 4.266666666666666e-05
pose: 
  position: 
    x: -0.27835977214225116
    y: 0.1660223571963906
    z: 0.8758688180929138
  orientation: 
    x: 0.458701524903181
    y: 0.26042478039584893
    z: 0.34558801100371117
    w: 0.7761061599148463
twist: 
  linear: 
    x: -0.01417042945041878
    y: -0.004821559096538675
    z: 0.011708797570552066
  angular: 
    x: -1.0965789915496893
    y: 0.3024324454323035
    z: 0.5507601177075754
wrench: 
  force: 
    x: 0.0
    y: 0.0
    z: 0.0
  torque: 
    x: 0.0
    y: 0.0
    z: 0.0
children_names: []
joint_names: []
joint_positions: []
joint_velocities: []
joint_efforts: []
---
header: 
  seq: 226327
  stamp: 
    secs: 1694626981
    nsecs: 122078896
  frame_id: ''
sim_step: 543153
identifier: 
  data: "/ambf/env/psm2/BODY 6toolyaw"
name: 
  data: "6toolyaw"
wall_time: 4526.54736328125
sim_time: 4526.27490234375
mass: 1.0
pInertia: 
  x: 2.666666666666666e-05
  y: 2.6666666666666653e-05
  z: 4.266666666666666e-05
pose: 
  position: 
    x: -0.2785045640162429
    y: 0.16596685910047812
    z: 0.8759514564590893
  orientation: 
    x: 0.458701524903181
    y: 0.26042478039584893
    z: 0.34558801100371117
    w: 0.7761061599148463
twist: 
  linear: 
    x: -7.799345817793499e-05
    y: -0.0033393661860255464
    z: -0.005596248945042534
  angular: 
    x: -0.2263495469393283
    y: -0.13991916419928171
    z: -1.297961756724154
wrench: 
  force: 
    x: 0.0
    y: 0.0
    z: 0.0
  torque: 
    x: 0.0
    y: 0.0
    z: 0.0
children_names: []
joint_names: []
joint_positions: []
joint_velocities: []
joint_efforts: []
---
header: 
  seq: 226328
  stamp: 
    secs: 1694626981
    nsecs: 147521019
  frame_id: ''
sim_step: 543156
identifier: 
  data: "/ambf/env/psm2/BODY 6toolyaw"
name: 
  data: "6toolyaw"
wall_time: 4526.57275390625
sim_time: 4526.2998046875
mass: 1.0
pInertia: 
  x: 2.666666666666666e-05
  y: 2.6666666666666653e-05
  z: 4.266666666666666e-05
pose: 
  position: 
    x: -0.2785649033349051
    y: 0.16617106639495136
    z: 0.8761698974998006
  orientation: 
    x: 0.458701524903181
    y: 0.26042478039584893
    z: 0.34558801100371117
    w: 0.7761061599148463
twist: 
  linear: 
    x: 0.003287210220957467
    y: 0.005031769886767373
    z: 0.01113960457171048
  angular: 
    x: -0.7569450766266154
    y: 0.4970591475720984
    z: -1.612699547389674
wrench: 
  force: 
    x: 0.0
    y: 0.0
    z: 0.0
  torque: 
    x: 0.0
    y: 0.0
    z: 0.0
children_names: []
joint_names: []
joint_positions: []
joint_velocities: []
joint_efforts: []
---
header: 
  seq: 226329
  stamp: 
    secs: 1694626981
    nsecs: 164083481
  frame_id: ''
sim_step: 543158
identifier: 
  data: "/ambf/env/psm2/BODY 6toolyaw"
name: 
  data: "6toolyaw"
wall_time: 4526.58935546875
sim_time: 4526.31689453125
mass: 1.0
pInertia: 
  x: 2.666666666666666e-05
  y: 2.6666666666666653e-05
  z: 4.266666666666666e-05
pose: 
  position: 
    x: -0.27847977734072293
    y: 0.16637520721922386
    z: 0.8762972133363813
  orientation: 
    x: 0.458701524903181
    y: 0.26042478039584893
    z: 0.34558801100371117
    w: 0.7761061599148463
twist: 
  linear: 
    x: 0.007117191830696827
    y: 0.006164116234101054
    z: 0.01054766481706987
  angular: 
    x: 0.34709052961845727
    y: -0.0946846341740649
    z: -0.6278519163980669
wrench: 
  force: 
    x: 0.0
    y: 0.0
    z: 0.0
  torque: 
    x: 0.0
    y: 0.0
    z: 0.0
children_names: []
joint_names: []
joint_positions: []
joint_velocities: []
joint_efforts: []
---
header: 
  seq: 226330
  stamp: 
    secs: 1694626981
    nsecs: 180665255
  frame_id: ''
sim_step: 543160
identifier: 
  data: "/ambf/env/psm2/BODY 6toolyaw"
name: 
  data: "6toolyaw"
wall_time: 4526.60595703125
sim_time: 4526.33349609375
mass: 1.0
pInertia: 
  x: 2.666666666666666e-05
  y: 2.6666666666666653e-05
  z: 4.266666666666666e-05
pose: 
  position: 
    x: -0.2783564904737563
    y: 0.16644016003002912
    z: 0.8764309799853162
  orientation: 
    x: 0.458701524903181
    y: 0.26042478039584893
    z: 0.34558801100371117
    w: 0.7761061599148463
twist: 
  linear: 
    x: 0.008637612505658828
    y: 0.0019466117405969453
    z: 0.006368348697889145
  angular: 
    x: 0.2472843487630465
    y: 0.19584929387596867
    z: -0.4034939710082067
wrench: 
  force: 
    x: 0.0
    y: 0.0
    z: 0.0
  torque: 
    x: 0.0
    y: 0.0
    z: 0.0
children_names: []
joint_names: []
joint_positions: []
joint_velocities: []
joint_efforts: []
---
header: 
  seq: 226331
  stamp: 
    secs: 1694626981
    nsecs: 205962658
  frame_id: ''
sim_step: 543163
identifier: 
  data: "/ambf/env/psm2/BODY 6toolyaw"
name: 
  data: "6toolyaw"
wall_time: 4526.630859375
sim_time: 4526.3583984375
mass: 1.0
pInertia: 
  x: 2.666666666666666e-05
  y: 2.6666666666666653e-05
  z: 4.266666666666666e-05
pose: 
  position: 
    x: -0.2779719375979662
    y: 0.16637825354605423
    z: 0.8766182608231253
  orientation: 
    x: 0.458701524903181
    y: 0.26042478039584893
    z: 0.34558801100371117
    w: 0.7761061599148463
twist: 
  linear: 
    x: 0.016580098613468108
    y: -0.0010213803315278014
    z: 0.0021627464207804215
  angular: 
    x: -0.775659560965366
    y: 0.4819015897702122
    z: 0.15949320756553145
wrench: 
  force: 
    x: 0.0
    y: 0.0
    z: 0.0
  torque: 
    x: 0.0
    y: 0.0
    z: 0.0
children_names: []
joint_names: []
joint_positions: []
joint_velocities: []
joint_efforts: []
---
header: 
  seq: 226332
  stamp: 
    secs: 1694626981
    nsecs: 222273827
  frame_id: ''
sim_step: 543165
identifier: 
  data: "/ambf/env/psm2/BODY 6toolyaw"
name: 
  data: "6toolyaw"
wall_time: 4526.6474609375
sim_time: 4526.375
mass: 1.0
pInertia: 
  x: 2.666666666666666e-05
  y: 2.6666666666666653e-05
  z: 4.266666666666666e-05
pose: 
  position: 
    x: -0.2777848872930413
    y: 0.16632151255199668
    z: 0.876569718773628
  orientation: 
    x: 0.458701524903181
    y: 0.26042478039584893
    z: 0.34558801100371117
    w: 0.7761061599148463
twist: 
  linear: 
    x: 0.011610715391868235
    y: -0.001276337600076147
    z: -0.0007427601110111788
  angular: 
    x: -1.238350572250578
    y: 0.11127038619963861
    z: -0.3849501715310501
wrench: 
  force: 
    x: 0.0
    y: 0.0
    z: 0.0
  torque: 
    x: 0.0
    y: 0.0
    z: 0.0
children_names: []
joint_names: []
joint_positions: []
joint_velocities: []
joint_efforts: []
---
header: 
  seq: 226333
  stamp: 
    secs: 1694626981
    nsecs: 239499569
  frame_id: ''
sim_step: 543167
identifier: 
  data: "/ambf/env/psm2/BODY 6toolyaw"
name: 
  data: "6toolyaw"
wall_time: 4526.6640625
sim_time: 4526.3916015625
mass: 1.0
pInertia: 
  x: 2.666666666666666e-05
  y: 2.6666666666666653e-05
  z: 4.266666666666666e-05
pose: 
  position: 
    x: -0.2775805199415491
    y: 0.1662596807230059
    z: 0.8767322812397284
  orientation: 
    x: 0.46802752961264044
    y: 0.2584330313973002
    z: 0.34371357679067877
    w: 0.7720256323058511
twist: 
  linear: 
    x: 0.009341879518628306
    y: 0.001691093605472384
    z: 0.0005009057377696179
  angular: 
    x: 1.8757042257200738
    y: -0.8578964075694177
    z: 0.6355328192929444
wrench: 
  force: 
    x: 0.0
    y: 0.0
    z: 0.0
  torque: 
    x: 0.0
    y: 0.0
    z: 0.0
children_names: []
joint_names: []
joint_positions: []
joint_velocities: []
joint_efforts: []
---
header: 
  seq: 226334
  stamp: 
    secs: 1694626981
    nsecs: 264498472
  frame_id: ''
sim_step: 543170
identifier: 
  data: "/ambf/env/psm2/BODY 6toolyaw"
name: 
  data: "6toolyaw"
wall_time: 4526.68896484375
sim_time: 4526.41650390625
mass: 1.0
pInertia: 
  x: 2.666666666666666e-05
  y: 2.6666666666666653e-05
  z: 4.266666666666666e-05
pose: 
  position: 
    x: -0.2773430331726331
    y: 0.16634143008059257
    z: 0.8768422671367638
  orientation: 
    x: 0.46802752961264044
    y: 0.2584330313973002
    z: 0.34371357679067877
    w: 0.7720256323058511
twist: 
  linear: 
    x: 0.010671528549193541
    y: 0.004368594485053711
    z: 0.01424679323405156
  angular: 
    x: 0.022601023397467335
    y: -0.22678582046440235
    z: 0.28290539753964977
wrench: 
  force: 
    x: 0.0
    y: 0.0
    z: 0.0
  torque: 
    x: 0.0
    y: 0.0
    z: 0.0
children_names: []
joint_names: []
joint_positions: []
joint_velocities: []
joint_efforts: []
---
header: 
  seq: 226335
  stamp: 
    secs: 1694626981
    nsecs: 281617880
  frame_id: ''
sim_step: 543172
identifier: 
  data: "/ambf/env/psm2/BODY 6toolyaw"
name: 
  data: "6toolyaw"
wall_time: 4526.7060546875
sim_time: 4526.43310546875
mass: 1.0
pInertia: 
  x: 2.666666666666666e-05
  y: 2.6666666666666653e-05
  z: 4.266666666666666e-05
pose: 
  position: 
    x: -0.27715900618451267
    y: 0.16643212471049568
    z: 0.8769970274114985
  orientation: 
    x: 0.46802752961264044
    y: 0.2584330313973002
    z: 0.34371357679067877
    w: 0.7720256323058511
twist: 
  linear: 
    x: 0.010389796556116236
    y: 0.00974927600671999
    z: 0.008832103098787066
  angular: 
    x: -0.8948230968281248
    y: 0.39173401688122883
    z: 0.08068960757412977
wrench: 
  force: 
    x: 0.0
    y: 0.0
    z: 0.0
  torque: 
    x: 0.0
    y: 0.0
    z: 0.0
children_names: []
joint_names: []
joint_positions: []
joint_velocities: []
joint_efforts: []
---
header: 
  seq: 226336
  stamp: 
    secs: 1694626981
    nsecs: 306754827
  frame_id: ''
sim_step: 543175
identifier: 
  data: "/ambf/env/psm2/BODY 6toolyaw"
name: 
  data: "6toolyaw"
wall_time: 4526.73095703125
sim_time: 4526.45849609375
mass: 1.0
pInertia: 
  x: 2.666666666666666e-05
  y: 2.6666666666666653e-05
  z: 4.266666666666666e-05
pose: 
  position: 
    x: -0.2769008225547816
    y: 0.16658688771273356
    z: 0.8771446378288156
  orientation: 
    x: 0.46802752961264044
    y: 0.2584330313973002
    z: 0.34371357679067877
    w: 0.7720256323058511
twist: 
  linear: 
    x: 0.008745650894202707
    y: 0.004739061628766385
    z: 0.007324088645036414
  angular: 
    x: 3.3591322933928147
    y: -2.5004054884168982
    z: 1.7068168581733392
wrench: 
  force: 
    x: 0.0
    y: 0.0
    z: 0.0
  torque: 
    x: 0.0
    y: 0.0
    z: 0.0
children_names: []
joint_names: []
joint_positions: []
joint_velocities: []
joint_efforts: []
---
header: 
  seq: 226337
  stamp: 
    secs: 1694626981
    nsecs: 322922707
  frame_id: ''
sim_step: 543177
identifier: 
  data: "/ambf/env/psm2/BODY 6toolyaw"
name: 
  data: "6toolyaw"
wall_time: 4526.74755859375
sim_time: 4526.47509765625
mass: 1.0
pInertia: 
  x: 2.666666666666666e-05
  y: 2.6666666666666653e-05
  z: 4.266666666666666e-05
pose: 
  position: 
    x: -0.27668051694173484
    y: 0.16662811147431952
    z: 0.8772669971158659
  orientation: 
    x: 0.46802752961264044
    y: 0.2584330313973002
    z: 0.34371357679067877
    w: 0.7720256323058511
twist: 
  linear: 
    x: 0.00983366165515737
    y: -0.0018599797054752248
    z: 0.012076401791105532
  angular: 
    x: 0.4181767834549288
    y: -0.04634891040317693
    z: -0.1537397092116994
wrench: 
  force: 
    x: 0.0
    y: 0.0
    z: 0.0
  torque: 
    x: 0.0
    y: 0.0
    z: 0.0
children_names: []
joint_names: []
joint_positions: []
joint_velocities: []
joint_efforts: []
---
header: 
  seq: 226338
  stamp: 
    secs: 1694626981
    nsecs: 339619637
  frame_id: ''
sim_step: 543179
identifier: 
  data: "/ambf/env/psm2/BODY 6toolyaw"
name: 
  data: "6toolyaw"
wall_time: 4526.76416015625
sim_time: 4526.49169921875
mass: 1.0
pInertia: 
  x: 2.666666666666666e-05
  y: 2.6666666666666653e-05
  z: 4.266666666666666e-05
pose: 
  position: 
    x: -0.27649006659968
    y: 0.16658186050344703
    z: 0.8773820108908982
  orientation: 
    x: 0.46802752961264044
    y: 0.2584330313973002
    z: 0.34371357679067877
    w: 0.7720256323058511
twist: 
  linear: 
    x: 0.01651615209727882
    y: -0.0020259614747499552
    z: 0.001211332323708653
  angular: 
    x: -0.7152837018139776
    y: 0.18673509909703517
    z: -0.10096870558756693
wrench: 
  force: 
    x: 0.0
    y: 0.0
    z: 0.0
  torque: 
    x: 0.0
    y: 0.0
    z: 0.0
children_names: []
joint_names: []
joint_positions: []
joint_velocities: []
joint_efforts: []
---
header: 
  seq: 226339
  stamp: 
    secs: 1694626981
    nsecs: 365244150
  frame_id: ''
sim_step: 543182
identifier: 
  data: "/ambf/env/psm2/BODY 6toolyaw"
name: 
  data: "6toolyaw"
wall_time: 4526.7890625
sim_time: 4526.5166015625
mass: 1.0
pInertia: 
  x: 2.666666666666666e-05
  y: 2.6666666666666653e-05
  z: 4.266666666666666e-05
pose: 
  position: 
    x: -0.2761377579599672
    y: 0.16644997183343496
    z: 0.8775488539252093
  orientation: 
    x: 0.46802752961264044
    y: 0.2584330313973002
    z: 0.34371357679067877
    w: 0.7720256323058511
twist: 
  linear: 
    x: 0.0168317499035433
    y: -0.005144772860392012
    z: 0.006297067963498628
  angular: 
    x: 1.3180483387965423
    y: -1.4284033175114759
    z: 1.1019838779872797
wrench: 
  force: 
    x: 0.0
    y: 0.0
    z: 0.0
  torque: 
    x: 0.0
    y: 0.0
    z: 0.0
children_names: []
joint_names: []
joint_positions: []
joint_velocities: []
joint_efforts: []
---
header: 
  seq: 226340
  stamp: 
    secs: 1694626981
    nsecs: 381436825
  frame_id: ''
sim_step: 543184
identifier: 
  data: "/ambf/env/psm2/BODY 6toolyaw"
name: 
  data: "6toolyaw"
wall_time: 4526.8056640625
sim_time: 4526.533203125
mass: 1.0
pInertia: 
  x: 2.666666666666666e-05
  y: 2.6666666666666653e-05
  z: 4.266666666666666e-05
pose: 
  position: 
    x: -0.27591805415975207
    y: 0.16636875584910102
    z: 0.8776639118172039
  orientation: 
    x: 0.46802752961264044
    y: 0.2584330313973002
    z: 0.34371357679067877
    w: 0.7720256323058511
twist: 
  linear: 
    x: 0.012999251962735273
    y: -0.0017268106390797271
    z: 0.008682147312967523
  angular: 
    x: 3.899010502656771
    y: -4.589748579895799
    z: 1.5092912798136644
wrench: 
  force: 
    x: 0.0
    y: 0.0
    z: 0.0
  torque: 
    x: 0.0
    y: 0.0
    z: 0.0
children_names: []
joint_names: []
joint_positions: []
joint_velocities: []
joint_efforts: []
---
header: 
  seq: 226341
  stamp: 
    secs: 1694626981
    nsecs: 407300711
  frame_id: ''
sim_step: 543187
identifier: 
  data: "/ambf/env/psm2/BODY 6toolyaw"
name: 
  data: "6toolyaw"
wall_time: 4526.8310546875
sim_time: 4526.55810546875
mass: 1.0
pInertia: 
  x: 2.666666666666666e-05
  y: 2.6666666666666653e-05
  z: 4.266666666666666e-05
pose: 
  position: 
    x: -0.27561549139104285
    y: 0.1663420925315778
    z: 0.8778414678996597
  orientation: 
    x: 0.46802752961264044
    y: 0.2584330313973002
    z: 0.34371357679067877
    w: 0.7720256323058511
twist: 
  linear: 
    x: 0.011461662488233677
    y: 0.001785619958491151
    z: 0.007072933027523619
  angular: 
    x: 4.210522044088516
    y: -5.457560305936155
    z: 1.5732016365331964
wrench: 
  force: 
    x: 0.0
    y: 0.0
    z: 0.0
  torque: 
    x: 0.0
    y: 0.0
    z: 0.0
children_names: []
joint_names: []
joint_positions: []
joint_velocities: []
joint_efforts: []
---
header: 
  seq: 226342
  stamp: 
    secs: 1694626981
    nsecs: 423320770
  frame_id: ''
sim_step: 543189
identifier: 
  data: "/ambf/env/psm2/BODY 6toolyaw"
name: 
  data: "6toolyaw"
wall_time: 4526.84765625
sim_time: 4526.5751953125
mass: 1.0
pInertia: 
  x: 2.666666666666666e-05
  y: 2.6666666666666653e-05
  z: 4.266666666666666e-05
pose: 
  position: 
    x: -0.27548274745575946
    y: 0.16637531872440764
    z: 0.8780079548228974
  orientation: 
    x: 0.46802752961264044
    y: 0.2584330313973002
    z: 0.34371357679067877
    w: 0.7720256323058511
twist: 
  linear: 
    x: 0.009387274225591992
    y: 0.0052699249743844
    z: 0.002679085839612411
  angular: 
    x: 0.5346417884964503
    y: -0.6113199720182272
    z: 0.3885167220575793
wrench: 
  force: 
    x: 0.0
    y: 0.0
    z: 0.0
  torque: 
    x: 0.0
    y: 0.0
    z: 0.0
children_names: []
joint_names: []
joint_positions: []
joint_velocities: []
joint_efforts: []
---
header: 
  seq: 226343
  stamp: 
    secs: 1694626981
    nsecs: 440066338
  frame_id: ''
sim_step: 543191
identifier: 
  data: "/ambf/env/psm2/BODY 6toolyaw"
name: 
  data: "6toolyaw"
wall_time: 4526.8642578125
sim_time: 4526.591796875
mass: 1.0
pInertia: 
  x: 2.666666666666666e-05
  y: 2.6666666666666653e-05
  z: 4.266666666666666e-05
pose: 
  position: 
    x: -0.27542765668316416
    y: 0.16642721650006942
    z: 0.8780415636516556
  orientation: 
    x: 0.46802752961264044
    y: 0.2584330313973002
    z: 0.34371357679067877
    w: 0.7720256323058511
twist: 
  linear: 
    x: -0.005008719500861908
    y: 0.0031644508617320174
    z: -0.006143118433591006
  angular: 
    x: 3.4910962103059977
    y: -2.383618174367973
    z: 1.2742616007480239
wrench: 
  force: 
    x: 0.0
    y: 0.0
    z: 0.0
  torque: 
    x: 0.0
    y: 0.0
    z: 0.0
children_names: []
joint_names: []
joint_positions: []
joint_velocities: []
joint_efforts: []
---
header: 
  seq: 226344
  stamp: 
    secs: 1694626981
    nsecs: 464780807
  frame_id: ''
sim_step: 543194
identifier: 
  data: "/ambf/env/psm2/BODY 6toolyaw"
name: 
  data: "6toolyaw"
wall_time: 4526.88916015625
sim_time: 4526.61669921875
mass: 1.0
pInertia: 
  x: 2.666666666666666e-05
  y: 2.6666666666666653e-05
  z: 4.266666666666666e-05
pose: 
  position: 
    x: -0.2753521491958963
    y: 0.16650470402626824
    z: 0.8781014180703047
  orientation: 
    x: 0.46290559523060154
    y: 0.2646659469383693
    z: 0.3158845568663843
    w: 0.7847848706293634
twist: 
  linear: 
    x: -0.004649836957936095
    y: 0.008013987255948771
    z: 0.0065962712696639135
  angular: 
    x: -0.1840873050402832
    y: 0.15062799573060437
    z: 0.9462855531746124
wrench: 
  force: 
    x: 0.0
    y: 0.0
    z: 0.0
  torque: 
    x: 0.0
    y: 0.0
    z: 0.0
children_names: []
joint_names: []
joint_positions: []
joint_velocities: []
joint_efforts: []
---
header: 
  seq: 226345
  stamp: 
    secs: 1694626981
    nsecs: 482075453
  frame_id: ''
sim_step: 543196
identifier: 
  data: "/ambf/env/psm2/BODY 6toolyaw"
name: 
  data: "6toolyaw"
wall_time: 4526.90576171875
sim_time: 4526.63330078125
mass: 1.0
pInertia: 
  x: 2.666666666666666e-05
  y: 2.6666666666666653e-05
  z: 4.266666666666666e-05
pose: 
  position: 
    x: -0.2752655493828747
    y: 0.1664443510794225
    z: 0.877971409750787
  orientation: 
    x: 0.46290559523060154
    y: 0.2646659469383693
    z: 0.3158845568663843
    w: 0.7847848706293634
twist: 
  linear: 
    x: 0.005368961630589332
    y: -0.006100983890152567
    z: -0.011434028936006384
  angular: 
    x: -0.3278686873709471
    y: 0.36782379146578886
    z: -1.084488536501266
wrench: 
  force: 
    x: 0.0
    y: 0.0
    z: 0.0
  torque: 
    x: 0.0
    y: 0.0
    z: 0.0
children_names: []
joint_names: []
joint_positions: []
joint_velocities: []
joint_efforts: []
---
header: 
  seq: 226346
  stamp: 
    secs: 1694626981
    nsecs: 507135153
  frame_id: ''
sim_step: 543199
identifier: 
  data: "/ambf/env/psm2/BODY 6toolyaw"
name: 
  data: "6toolyaw"
wall_time: 4526.9306640625
sim_time: 4526.658203125
mass: 1.0
pInertia: 
  x: 2.666666666666666e-05
  y: 2.6666666666666653e-05
  z: 4.266666666666666e-05
pose: 
  position: 
    x: -0.27519160817659705
    y: 0.16644776796171856
    z: 0.8778576525466311
  orientation: 
    x: 0.46290559523060154
    y: 0.2646659469383693
    z: 0.3158845568663843
    w: 0.7847848706293634
twist: 
  linear: 
    x: 6.982378364749786e-05
    y: 0.0017995770513215493
    z: 0.009843483797154466
  angular: 
    x: -0.8977710235320163
    y: 0.5085731407299079
    z: 0.4978682579707169
wrench: 
  force: 
    x: 0.0
    y: 0.0
    z: 0.0
  torque: 
    x: 0.0
    y: 0.0
    z: 0.0
children_names: []
joint_names: []
joint_positions: []
joint_velocities: []
joint_efforts: []
---
header: 
  seq: 226347
  stamp: 
    secs: 1694626981
    nsecs: 523615122
  frame_id: ''
sim_step: 543201
identifier: 
  data: "/ambf/env/psm2/BODY 6toolyaw"
name: 
  data: "6toolyaw"
wall_time: 4526.94775390625
sim_time: 4526.6748046875
mass: 1.0
pInertia: 
  x: 2.666666666666666e-05
  y: 2.6666666666666653e-05
  z: 4.266666666666666e-05
pose: 
  position: 
    x: -0.27501008031303287
    y: 0.16639182847775594
    z: 0.8775755336433135
  orientation: 
    x: 0.46290559523060154
    y: 0.2646659469383693
    z: 0.3158845568663843
    w: 0.7847848706293634
twist: 
  linear: 
    x: 0.01329981372277013
    y: -0.004204073679089183
    z: -0.022077938895417586
  angular: 
    x: -0.4617705034157788
    y: 0.6414253144326628
    z: -1.2374082654404057
wrench: 
  force: 
    x: 0.0
    y: 0.0
    z: 0.0
  torque: 
    x: 0.0
    y: 0.0
    z: 0.0
children_names: []
joint_names: []
joint_positions: []
joint_velocities: []
joint_efforts: []
---
header: 
  seq: 226348
  stamp: 
    secs: 1694626981
    nsecs: 539721012
  frame_id: ''
sim_step: 543203
identifier: 
  data: "/ambf/env/psm2/BODY 6toolyaw"
name: 
  data: "6toolyaw"
wall_time: 4526.96435546875
sim_time: 4526.69189453125
mass: 1.0
pInertia: 
  x: 2.666666666666666e-05
  y: 2.6666666666666653e-05
  z: 4.266666666666666e-05
pose: 
  position: 
    x: -0.27485849487444736
    y: 0.16633557763961151
    z: 0.8775722400438207
  orientation: 
    x: 0.46290559523060154
    y: 0.2646659469383693
    z: 0.3158845568663843
    w: 0.7847848706293634
twist: 
  linear: 
    x: 0.015375752736267106
    y: -0.0073651335309914984
    z: -0.014914278806142132
  angular: 
    x: 2.6220989928418814
    y: -1.7623741098115069
    z: 0.21587279600084092
wrench: 
  force: 
    x: 0.0
    y: 0.0
    z: 0.0
  torque: 
    x: 0.0
    y: 0.0
    z: 0.0
children_names: []
joint_names: []
joint_positions: []
joint_velocities: []
joint_efforts: []
---
header: 
  seq: 226349
  stamp: 
    secs: 1694626981
    nsecs: 564857244
  frame_id: ''
sim_step: 543206
identifier: 
  data: "/ambf/env/psm2/BODY 6toolyaw"
name: 
  data: "6toolyaw"
wall_time: 4526.9892578125
sim_time: 4526.716796875
mass: 1.0
pInertia: 
  x: 2.666666666666666e-05
  y: 2.6666666666666653e-05
  z: 4.266666666666666e-05
pose: 
  position: 
    x: -0.27446085210783233
    y: 0.16633890279904562
    z: 0.877415203166562
  orientation: 
    x: 0.46290559523060154
    y: 0.2646659469383693
    z: 0.3158845568663843
    w: 0.7847848706293634
twist: 
  linear: 
    x: 0.018875849566707948
    y: 0.006139713094023069
    z: -0.0054276840023979095
  angular: 
    x: 0.08003497500522491
    y: -0.2641638679456107
    z: 1.2122611290421355
wrench: 
  force: 
    x: 0.0
    y: 0.0
    z: 0.0
  torque: 
    x: 0.0
    y: 0.0
    z: 0.0
children_names: []
joint_names: []
joint_positions: []
joint_velocities: []
joint_efforts: []
---
header: 
  seq: 226350
  stamp: 
    secs: 1694626981
    nsecs: 582067013
  frame_id: ''
sim_step: 543208
identifier: 
  data: "/ambf/env/psm2/BODY 6toolyaw"
name: 
  data: "6toolyaw"
wall_time: 4527.005859375
sim_time: 4526.7333984375
mass: 1.0
pInertia: 
  x: 2.666666666666666e-05
  y: 2.6666666666666653e-05
  z: 4.266666666666666e-05
pose: 
  position: 
    x: -0.2741357626384539
    y: 0.1663353867540544
    z: 0.8773821369390928
  orientation: 
    x: 0.46290559523060154
    y: 0.2646659469383693
    z: 0.3158845568663843
    w: 0.7847848706293634
twist: 
  linear: 
    x: 0.028934833559605303
    y: 0.00973704865420944
    z: -0.0187588540599692
  angular: 
    x: 0.08875371579715531
    y: -0.3222108330283459
    z: 0.9818804293642215
wrench: 
  force: 
    x: 0.0
    y: 0.0
    z: 0.0
  torque: 
    x: 0.0
    y: 0.0
    z: 0.0
children_names: []
joint_names: []
joint_positions: []
joint_velocities: []
joint_efforts: []
---
header: 
  seq: 226351
  stamp: 
    secs: 1694626981
    nsecs: 606647015
  frame_id: ''
sim_step: 543211
identifier: 
  data: "/ambf/env/psm2/BODY 6toolyaw"
name: 
  data: "6toolyaw"
wall_time: 4527.03076171875
sim_time: 4526.75830078125
mass: 1.0
pInertia: 
  x: 2.666666666666666e-05
  y: 2.6666666666666653e-05
  z: 4.266666666666666e-05
pose: 
  position: 
    x: -0.27350499341786666
    y: 0.16650841132855626
    z: 0.877205601975998
  orientation: 
    x: 0.46290559523060154
    y: 0.2646659469383693
    z: 0.3158845568663843
    w: 0.7847848706293634
twist: 
  linear: 
    x: 0.02690701103860588
    y: 0.009354885314146882
    z: -0.0037140128435234274
  angular: 
    x: 2.5613579030506317
    y: -2.442099391198749
    z: 2.4025437693492933
wrench: 
  force: 
    x: 0.0
    y: 0.0
    z: 0.0
  torque: 
    x: 0.0
    y: 0.0
    z: 0.0
children_names: []
joint_names: []
joint_positions: []
joint_velocities: []
joint_efforts: []
---
header: 
  seq: 226352
  stamp: 
    secs: 1694626981
    nsecs: 623347998
  frame_id: ''
sim_step: 543213
identifier: 
  data: "/ambf/env/psm2/BODY 6toolyaw"
name: 
  data: "6toolyaw"
wall_time: 4527.04736328125
sim_time: 4526.77490234375
mass: 1.0
pInertia: 
  x: 2.666666666666666e-05
  y: 2.6666666666666653e-05
  z: 4.266666666666666e-05
pose: 
  position: 
    x: -0.2731213225443423
    y: 0.16662815716248205
    z: 0.8772232757948132
  orientation: 
    x: 0.46290559523060154
    y: 0.2646659469383693
    z: 0.3158845568663843
    w: 0.7847848706293634
twist: 
  linear: 
    x: 0.01897639153145772
    y: 0.0010354743882938773
    z: 0.010474007426038746
  angular: 
    x: -0.7359239892846492
    y: 0.6483404900968923
    z: -1.345702014971303
wrench: 
  force: 
    x: 0.0
    y: 0.0
    z: 0.0
  torque: 
    x: 0.0
    y: 0.0
    z: 0.0
children_names: []
joint_names: []
joint_positions: []
joint_velocities: []
joint_efforts: []
---
header: 
  seq: 226353
  stamp: 
    secs: 1694626981
    nsecs: 647291899
  frame_id: ''
sim_step: 543216
identifier: 
  data: "/ambf/env/psm2/BODY 6toolyaw"
name: 
  data: "6toolyaw"
wall_time: 4527.07275390625
sim_time: 4526.7998046875
mass: 1.0
pInertia: 
  x: 2.666666666666666e-05
  y: 2.6666666666666653e-05
  z: 4.266666666666666e-05
pose: 
  position: 
    x: -0.2725180992217311
    y: 0.1668325888293363
    z: 0.8771510788474113
  orientation: 
    x: 0.46290559523060154
    y: 0.2646659469383693
    z: 0.3158845568663843
    w: 0.7847848706293634
twist: 
  linear: 
    x: 0.015512648271076847
    y: 0.0004921029738386824
    z: 0.011746073505415597
  angular: 
    x: -0.6588678496982037
    y: 0.5911505683943459
    z: -1.1447837305748394
wrench: 
  force: 
    x: 0.0
    y: 0.0
    z: 0.0
  torque: 
    x: 0.0
    y: 0.0
    z: 0.0
children_names: []
joint_names: []
joint_positions: []
joint_velocities: []
joint_efforts: []
---
header: 
  seq: 226354
  stamp: 
    secs: 1694626981
    nsecs: 665433645
  frame_id: ''
sim_step: 543218
identifier: 
  data: "/ambf/env/psm2/BODY 6toolyaw"
name: 
  data: "6toolyaw"
wall_time: 4527.08935546875
sim_time: 4526.81689453125
mass: 1.0
pInertia: 
  x: 2.666666666666666e-05
  y: 2.6666666666666653e-05
  z: 4.266666666666666e-05
pose: 
  position: 
    x: -0.27209877866599874
    y: 0.1669496538413069
    z: 0.8769497474089782
  orientation: 
    x: 0.4641152808038316
    y: 0.25718250001106907
    z: 0.33178282142915577
    w: 0.7799835429141732
twist: 
  linear: 
    x: 0.018205356171077148
    y: 0.0047341390624404695
    z: -0.009943863465178568
  angular: 
    x: 0.07010077535177461
    y: 0.07858908279371546
    z: -0.24006725821593577
wrench: 
  force: 
    x: 0.0
    y: 0.0
    z: 0.0
  torque: 
    x: 0.0
    y: 0.0
    z: 0.0
children_names: []
joint_names: []
joint_positions: []
joint_velocities: []
joint_efforts: []
---
header: 
  seq: 226355
  stamp: 
    secs: 1694626981
    nsecs: 681683302
  frame_id: ''
sim_step: 543220
identifier: 
  data: "/ambf/env/psm2/BODY 6toolyaw"
name: 
  data: "6toolyaw"
wall_time: 4527.10595703125
sim_time: 4526.83349609375
mass: 1.0
pInertia: 
  x: 2.666666666666666e-05
  y: 2.6666666666666653e-05
  z: 4.266666666666666e-05
pose: 
  position: 
    x: -0.2716706720621894
    y: 0.16701616441817466
    z: 0.8767059059076849
  orientation: 
    x: 0.4641152808038316
    y: 0.25718250001106907
    z: 0.33178282142915577
    w: 0.7799835429141732
twist: 
  linear: 
    x: 0.024791040062375754
    y: 0.0034029951858818314
    z: -0.016924762280642765
  angular: 
    x: -0.8552103245439225
    y: 0.45755702543795135
    z: -0.37505544852135225
wrench: 
  force: 
    x: 0.0
    y: 0.0
    z: 0.0
  torque: 
    x: 0.0
    y: 0.0
    z: 0.0
children_names: []
joint_names: []
joint_positions: []
joint_velocities: []
joint_efforts: []
---
header: 
  seq: 226356
  stamp: 
    secs: 1694626981
    nsecs: 706668854
  frame_id: ''
sim_step: 543223
identifier: 
  data: "/ambf/env/psm2/BODY 6toolyaw"
name: 
  data: "6toolyaw"
wall_time: 4527.130859375
sim_time: 4526.8583984375
mass: 1.0
pInertia: 
  x: 2.666666666666666e-05
  y: 2.6666666666666653e-05
  z: 4.266666666666666e-05
pose: 
  position: 
    x: -0.27112937534186243
    y: 0.16708807006780638
    z: 0.8764254357268494
  orientation: 
    x: 0.4641152808038316
    y: 0.25718250001106907
    z: 0.33178282142915577
    w: 0.7799835429141732
twist: 
  linear: 
    x: 0.02732017517727724
    y: 0.005166990548991035
    z: -0.01928164613854607
  angular: 
    x: 1.9442979280965942
    y: -1.5754019473846612
    z: 1.378664505954543
wrench: 
  force: 
    x: 0.0
    y: 0.0
    z: 0.0
  torque: 
    x: 0.0
    y: 0.0
    z: 0.0
children_names: []
joint_names: []
joint_positions: []
joint_velocities: []
joint_efforts: []
---
header: 
  seq: 226357
  stamp: 
    secs: 1694626981
    nsecs: 723402262
  frame_id: ''
sim_step: 543225
identifier: 
  data: "/ambf/env/psm2/BODY 6toolyaw"
name: 
  data: "6toolyaw"
wall_time: 4527.1474609375
sim_time: 4526.875
mass: 1.0
pInertia: 
  x: 2.666666666666666e-05
  y: 2.6666666666666653e-05
  z: 4.266666666666666e-05
pose: 
  position: 
    x: -0.27078956483067135
    y: 0.16715735490488617
    z: 0.876292951412138
  orientation: 
    x: 0.4641152808038316
    y: 0.25718250001106907
    z: 0.33178282142915577
    w: 0.7799835429141732
twist: 
  linear: 
    x: 0.011660738442307687
    y: 0.0006444304468124192
    z: 0.011954743976286413
  angular: 
    x: -1.1372087402651487
    y: 0.9899364391979312
    z: -1.0451894452548065
wrench: 
  force: 
    x: 0.0
    y: 0.0
    z: 0.0
  torque: 
    x: 0.0
    y: 0.0
    z: 0.0
children_names: []
joint_names: []
joint_positions: []
joint_velocities: []
joint_efforts: []
---
header: 
  seq: 226358
  stamp: 
    secs: 1694626981
    nsecs: 738851309
  frame_id: ''
sim_step: 543227
identifier: 
  data: "/ambf/env/psm2/BODY 6toolyaw"
name: 
  data: "6toolyaw"
wall_time: 4527.1640625
sim_time: 4526.8916015625
mass: 1.0
pInertia: 
  x: 2.666666666666666e-05
  y: 2.6666666666666653e-05
  z: 4.266666666666666e-05
pose: 
  position: 
    x: -0.2704742687134023
    y: 0.16723364701237348
    z: 0.876269471980938
  orientation: 
    x: 0.4641152808038316
    y: 0.25718250001106907
    z: 0.33178282142915577
    w: 0.7799835429141732
twist: 
  linear: 
    x: 0.030069652547062502
    y: 0.012049445332478079
    z: -0.02750066577877899
  angular: 
    x: 0.7595261711925221
    y: -0.805935849926479
    z: 0.5227794140421779
wrench: 
  force: 
    x: 0.0
    y: 0.0
    z: 0.0
  torque: 
    x: 0.0
    y: 0.0
    z: 0.0
children_names: []
joint_names: []
joint_positions: []
joint_velocities: []
joint_efforts: []
---
header: 
  seq: 226359
  stamp: 
    secs: 1694626981
    nsecs: 764576197
  frame_id: ''
sim_step: 543230
identifier: 
  data: "/ambf/env/psm2/BODY 6toolyaw"
name: 
  data: "6toolyaw"
wall_time: 4527.18896484375
sim_time: 4526.91650390625
mass: 1.0
pInertia: 
  x: 2.666666666666666e-05
  y: 2.6666666666666653e-05
  z: 4.266666666666666e-05
pose: 
  position: 
    x: -0.2700429588614364
    y: 0.16743586429893106
    z: 0.8760732448963546
  orientation: 
    x: 0.4641152808038316
    y: 0.25718250001106907
    z: 0.33178282142915577
    w: 0.7799835429141732
twist: 
  linear: 
    x: 0.017384465004649564
    y: 0.005091559049864495
    z: 0.002562712200441352
  angular: 
    x: -1.4604842982262598
    y: 1.0003751541381234
    z: -0.796024240482214
wrench: 
  force: 
    x: 0.0
    y: 0.0
    z: 0.0
  torque: 
    x: 0.0
    y: 0.0
    z: 0.0
children_names: []
joint_names: []
joint_positions: []
joint_velocities: []
joint_efforts: []
---
header: 
  seq: 226360
  stamp: 
    secs: 1694626981
    nsecs: 781657457
  frame_id: ''
sim_step: 543232
identifier: 
  data: "/ambf/env/psm2/BODY 6toolyaw"
name: 
  data: "6toolyaw"
wall_time: 4527.2060546875
sim_time: 4526.93310546875
mass: 1.0
pInertia: 
  x: 2.666666666666666e-05
  y: 2.6666666666666653e-05
  z: 4.266666666666666e-05
pose: 
  position: 
    x: -0.26977515338454267
    y: 0.16753112872789366
    z: 0.8760702538265909
  orientation: 
    x: 0.4641152808038316
    y: 0.25718250001106907
    z: 0.33178282142915577
    w: 0.7799835429141732
twist: 
  linear: 
    x: 0.019134382686513806
    y: 0.004525641502850135
    z: 0.00270838823791866
  angular: 
    x: -1.604794967593106
    y: 1.2172316035626065
    z: -0.8019885000454787
wrench: 
  force: 
    x: 0.0
    y: 0.0
    z: 0.0
  torque: 
    x: 0.0
    y: 0.0
    z: 0.0
children_names: []
joint_names: []
joint_positions: []
joint_velocities: []
joint_efforts: []
---
header: 
  seq: 226361
  stamp: 
    secs: 1694626981
    nsecs: 806747675
  frame_id: ''
sim_step: 543235
identifier: 
  data: "/ambf/env/psm2/BODY 6toolyaw"
name: 
  data: "6toolyaw"
wall_time: 4527.23095703125
sim_time: 4526.95849609375
mass: 1.0
pInertia: 
  x: 2.666666666666666e-05
  y: 2.6666666666666653e-05
  z: 4.266666666666666e-05
pose: 
  position: 
    x: -0.26929152686333563
    y: 0.1675920916839182
    z: 0.8759366872245776
  orientation: 
    x: 0.4641152808038316
    y: 0.25718250001106907
    z: 0.33178282142915577
    w: 0.7799835429141732
twist: 
  linear: 
    x: 0.025631476101279364
    y: 0.0009129842062444173
    z: -0.01780377738518964
  angular: 
    x: 1.027760524334832
    y: -1.0304143234169971
    z: 0.4346652064268519
wrench: 
  force: 
    x: 0.0
    y: 0.0
    z: 0.0
  torque: 
    x: 0.0
    y: 0.0
    z: 0.0
children_names: []
joint_names: []
joint_positions: []
joint_velocities: []
joint_efforts: []
---
header: 
  seq: 226362
  stamp: 
    secs: 1694626981
    nsecs: 822084427
  frame_id: ''
sim_step: 543237
identifier: 
  data: "/ambf/env/psm2/BODY 6toolyaw"
name: 
  data: "6toolyaw"
wall_time: 4527.24755859375
sim_time: 4526.97509765625
mass: 1.0
pInertia: 
  x: 2.666666666666666e-05
  y: 2.6666666666666653e-05
  z: 4.266666666666666e-05
pose: 
  position: 
    x: -0.26894835717393195
    y: 0.1675724827776141
    z: 0.8757839244383181
  orientation: 
    x: 0.4641152808038316
    y: 0.25718250001106907
    z: 0.33178282142915577
    w: 0.7799835429141732
twist: 
  linear: 
    x: 0.014224601668207259
    y: -0.004820729611034381
    z: 0.006942070922632777
  angular: 
    x: -0.43739965507172807
    y: 0.4582748986337653
    z: -0.15804655023796682
wrench: 
  force: 
    x: 0.0
    y: 0.0
    z: 0.0
  torque: 
    x: 0.0
    y: 0.0
    z: 0.0
children_names: []
joint_names: []
joint_positions: []
joint_velocities: []
joint_efforts: []
---
header: 
  seq: 226363
  stamp: 
    secs: 1694626981
    nsecs: 839393854
  frame_id: ''
sim_step: 543239
identifier: 
  data: "/ambf/env/psm2/BODY 6toolyaw"
name: 
  data: "6toolyaw"
wall_time: 4527.26416015625
sim_time: 4526.99169921875
mass: 1.0
pInertia: 
  x: 2.666666666666666e-05
  y: 2.6666666666666653e-05
  z: 4.266666666666666e-05
pose: 
  position: 
    x: -0.26858472795798866
    y: 0.16751491599147056
    z: 0.87562147404584
  orientation: 
    x: 0.4641152808038316
    y: 0.25718250001106907
    z: 0.33178282142915577
    w: 0.7799835429141732
twist: 
  linear: 
    x: 0.033237281859986215
    y: 0.0012071810740773956
    z: -0.041384229708845664
  angular: 
    x: 0.983224377129635
    y: -1.1429849246459356
    z: 0.258005503222836
wrench: 
  force: 
    x: 0.0
    y: 0.0
    z: 0.0
  torque: 
    x: 0.0
    y: 0.0
    z: 0.0
children_names: []
joint_names: []
joint_positions: []
joint_velocities: []
joint_efforts: []
---
header: 
